<?xml version="1.0" encoding="utf-8" ?>
<gimnasios>
<gimnasio>
<nombre>Gimnasio Aranda</nombre>
<calle> Av. Castilla, 12</calle>
<telefono>947 50 77 92</telefono>
<latitud>41.668829007801705</latitud>
<longitud>-3.6908347703765103</longitud>
</gimnasio>
<gimnasio>
<nombre>Gym Fitness</nombre>
<calle>C. Moratín, 17</calle>
<telefono>947 51 04 55</telefono>
<latitud>41.67413269294715</latitud>
<longitud>-3.6844777480934736</longitud>
</gimnasio>
<gimnasio>
<nombre>Colliseum Gym Center</nombre>
<calle>N-I, Km. 160</calle>
<telefono>947 45 61 59</telefono>
<latitud>41.68739571860421</latitud>
<longitud>-3.6838979333888875</longitud>
</gimnasio>
<gimnasio>
<nombre>Fundación Caja de Burgos - Interclub Aranda de Duero</nombre>
<calle>C. Pisuerga, 2</calle>
<telefono>947 51 00 73</telefono>
<latitud>41.660478727257576</latitud>
<longitud>-3.6932682073838206</longitud>
</gimnasio>
<gimnasio>
<nombre>INACUA Aranda de Duero</nombre>
<calle>Carr. Soria, s/n</calle>
<telefono>947 51 11 42</telefono>
<latitud>41.65796482842915</latitud>
<longitud>-3.68278169924656</longitud>
</gimnasio>
</gimnasios>